id,name,type,subCategory,category,location,district,tier,rating,description,image,phone,website,lat,lng,socialFacebook,socialInstagram
hotel-hotels-trincomalee-1,Trincomalee Beach Hotel,hotel,Hotels,Accommodation,"Trincomalee Town, Trincomalee",Trincomalee,,4.3,Comfortable stay in Trincomalee Town with easy access to the beach and local attractions.,https://placehold.co/800x600?text=Trincomalee%20Beach%20Hotel,+94 026 203 5506,https://www.trincomalee-beach-hotel.lk,8.5782,81.2261,https://facebook.com/trincomaleebeachhotel,https://instagram.com/trincomaleebeachhotel
hotel-hotels-trincomalee-2,Nilaveli Inn,hotel,Hotels,Accommodation,"Nilaveli, Trincomalee",Trincomalee,,3.9,Comfortable stay in Nilaveli with easy access to the beach and local attractions.,https://placehold.co/800x600?text=Nilaveli%20Inn,+94 026 294 9935,https://www.nilaveli-inn.lk,8.6917,81.1817,https://facebook.com/nilaveliinn,https://instagram.com/nilaveliinn
hotel-hotels-trincomalee-3,Uppuveli Ocean View Hotel,hotel,Hotels,Accommodation,"Uppuveli, Trincomalee",Trincomalee,,3.8,"Comfortable stay in Uppuveli, with easy access to the beach and local attractions.",https://placehold.co/800x600?text=Uppuveli%20Ocean%20View%20Hotel,+94 026 227 4811,https://www.uppuveli-ocean-view-hotel.lk,8.6034,81.1955,https://facebook.com/uppuvelioceanviewhotel,https://instagram.com/uppuvelioceanviewhotel
hotel-hotels-trincomalee-4,Kuchchaveli Guest House,hotel,Hotels,Accommodation,"Kuchchaveli, Trincomalee",Trincomalee,,4,"Comfortable stay in Kuchchaveli with easy access to the beach and local attractions.",https://placehold.co/800x600?text=Kuchchaveli%20Guest%20House,+94 026 283 9928,https://www.kuchchaveli-guest-house.lk,8.8817,81.1323,https://facebook.com/kuchchaveliguesthouse,https://instagram.com/kuchchaveliguesthouse
hotel-hotels-batticaloa-1,Batticaloa Beach Hotel,hotel,Hotels,Accommodation,"Batticaloa Town, Batticaloa",Batticaloa,,4,"Comfortable stay in Batticaloa Town with easy access to the beach and local attractions.",https://placehold.co/800x600?text=Batticaloa%20Beach%20Hotel,+94 065 200 3615,https://www.batticaloa-beach-hotel.lk,7.7207,81.6968,https://facebook.com/batticaloabeachhotel,https://instagram.com/batticaloabeachhotel
hotel-hotels-batticaloa-2,Kallady Inn,hotel,Hotels,Accommodation,"Kallady, Batticaloa",Batticaloa,,3.9,"Comfortable stay in Kallady with easy access to the beach and local attractions.",https://placehold.co/800x600?text=Kallady%20Inn,+94 065 297 6514,https://www.kallady-inn.lk,7.7087,81.7143,https://facebook.com/kalladyinn,https://instagram.com/kalladyinn
hotel-hotels-batticaloa-3,Pasikudah Ocean View Hotel,hotel,Hotels,Accommodation,"Pasikudah, Batticaloa",Batticaloa,,4.1,"Comfortable stay in Pasikudah with easy access to the beach and local attractions.",https://placehold.co/800x600?text=Pasikudah%20Ocean%20View%20Hotel,+94 065 244 5333,https://www.pasikudah-ocean-view-hotel.lk,7.9394,81.5713,https://facebook.com/pasikudahoceanviewhotel,https://instagram.com/pasikudahoceanviewhotel
hotel-hotels-batticaloa-4,Kalkudah Guest House,hotel,Hotels,Accommodation,"Kalkudah, Batticaloa",Batticaloa,,4.2,"Comfortable stay in Kalkudah with easy access to the beach and local attractions.",https://placehold.co/800x600?text=Kalkudah%20Guest%20House,+94 065 248 2291,https://www.kalkudah-guest-house.lk,7.9177,81.5733,https://facebook.com/kalkudahguesthouse,https://instagram.com/kalkudahguesthouse
hotel-hotels-ampara-1,Arugam Beach Hotel,hotel,Hotels,Accommodation,"Arugam Bay, Ampara",Ampara,,4.3,"Comfortable stay in Arugam Bay with easy access to the beach and local attractions.",https://placehold.co/800x600?text=Arugam%20Beach%20Hotel,+94 063 246 4150,https://www.arugam-beach-hotel.lk,6.8441,81.8276,https://facebook.com/arugambeachhotel,https://instagram.com/arugambeachhotel
hotel-hotels-ampara-2,Pottuvil Inn,hotel,Hotels,Accommodation,"Pottuvil, Ampara",Ampara,,4,"Comfortable stay in Pottuvil with easy access to the beach and local attractions.",https://placehold.co/800x600?text=Pottuvil%20Inn,+94 063 237 2307,https://www.pottuvil-inn.lk,6.8768,81.8356,https://facebook.com/pottuvilinn,https://instagram.com/pottuvilinn
hotel-hotels-ampara-3,Kalmunai Ocean View Hotel,hotel,Hotels,Accommodation,"Kalmunai, Ampara",Ampara,,4.1,"Comfortable stay in Kalmunai with easy access to the beach and local attractions.",https://placehold.co/800x600?text=Kalmunai%20Ocean%20View%20Hotel,+94 063 258 6977,https://www.kalmunai-ocean-view-hotel.lk,7.41,81.8138,https://facebook.com/kalmunaioceanviewhotel,https://instagram.com/kalmunaioceanviewhotel
hotel-resorts-trincomalee-1,Trincomalee Bay Resort,hotel,Resorts,Accommodation,"Trincomalee Town, Trincomalee",Trincomalee,featured,4.6,"Beachfront resort in Trincomalee Town offering pools, spa treatments and ocean-view rooms.",https://placehold.co/800x600?text=Trincomalee%20Bay%20Resort,+94 026 289 2169,https://www.trincomalee-bay-resort.lk,8.5855,81.2267,https://facebook.com/trincomaleebayresort,https://instagram.com/trincomaleebayresort
hotel-resorts-trincomalee-2,Nilaveli Lagoon Resort,hotel,Resorts,Accommodation,"Nilaveli, Trincomalee",Trincomalee,premium,4.7,"Beachfront resort in Nilaveli offering pools, spa treatments and ocean-view rooms.",https://placehold.co/800x600?text=Nilaveli%20Lagoon%20Resort,+94 026 220 8573,https://www.nilaveli-lagoon-resort.lk,8.6976,81.1931,https://facebook.com/nilavelilagoonresort,https://instagram.com/nilavelilagoonresort
hotel-resorts-trincomalee-3,Uppuveli Coconut Grove Resort,hotel,Resorts,Accommodation,"Uppuveli, Trincomalee",Trincomalee,featured,4.6,"Beachfront resort in Uppuveli offering pools, spa treatments and ocean-view rooms.",https://placehold.co/800x600?text=Uppuveli%20Coconut%20Grove%20Resort,+94 026 271 4598,https://www.uppuveli-coconut-grove-resort.lk,8.607,81.2119,https://facebook.com/uppuvelicoconutgroveresort,https://instagram.com/uppuvelicoconutgroveresort
hotel-resorts-trincomalee-4,Kuchchaveli Sands Resort,hotel,Resorts,Accommodation,"Kuchchaveli, Trincomalee",Trincomalee,premium,4.7,"Beachfront resort in Kuchchaveli offering pools, spa treatments and ocean-view rooms.",https://placehold.co/800x600?text=Kuchchaveli%20Sands%20Resort,+94 026 229 1525,https://www.kuchchaveli-sands-resort.lk,8.8894,81.1313,https://facebook.com/kuchchavelisandsresort,https://instagram.com/kuchchavelisandsresort
hotel-resorts-batticaloa-1,Batticaloa Bay Resort,hotel,Resorts,Accommodation,"Batticaloa Town, Batticaloa",Batticaloa,,4.1,"Beachfront resort in Batticaloa Town offering pools, spa treatments and ocean-view rooms.",https://placehold.co/800x600?text=Batticaloa%20Bay%20Resort,+94 065 272 6155,https://www.batticaloa-bay-resort.lk,7.711,81.7,https://facebook.com/batticaloabayresort,https://instagram.com/batticaloabayresort
hotel-resorts-batticaloa-2,Kallady Lagoon Resort,hotel,Resorts,Accommodation,"Kallady, Batticaloa",Batticaloa,premium,4.8,"Beachfront resort in Kallady offering pools, spa treatments and ocean-view rooms.",https://placehold.co/800x600?text=Kallady%20Lagoon%20Resort,+94 065 282 8517,https://www.kallady-lagoon-resort.lk,7.7096,81.7095,https://facebook.com/kalladylagoonresort,https://instagram.com/kalladylagoonresort
hotel-resorts-batticaloa-3,Pasikudah Coconut Grove Resort,hotel,Resorts,Accommodation,"Pasikudah, Batticaloa",Batticaloa,premium,4.7,"Beachfront resort in Pasikudah offering pools, spa treatments and ocean-view rooms.",https://placehold.co/800x600?text=Pasikudah%20Coconut%20Grove%20Resort,+94 065 268 5304,https://www.pasikudah-coconut-grove-resort.lk,7.9382,81.5653,https://facebook.com/pasikudahcoconutgroveresort,https://instagram.com/pasikudahcoconutgroveresort
hotel-resorts-ampara-1,Arugam Bay Resort,hotel,Resorts,Accommodation,"Arugam Bay, Ampara",Ampara,featured,4.5,"Beachfront resort in Arugam Bay offering pools, spa treatments and ocean-view rooms.",https://placehold.co/800x600?text=Arugam%20Bay%20Resort,+94 063 246 4593,https://www.arugam-bay-resort.lk,6.8499,81.8295,https://facebook.com/arugambayresort,https://instagram.com/arugambayresort
hotel-resorts-ampara-2,Pottuvil Lagoon Resort,hotel,Resorts,Accommodation,"Pottuvil, Ampara",Ampara,featured,4.4,"Beachfront resort in Pottuvil offering pools, spa treatments and ocean-view rooms.",https://placehold.co/800x600?text=Pottuvil%20Lagoon%20Resort,+94 063 296 1771,https://www.pottuvil-lagoon-resort.lk,6.8769,81.8214,https://facebook.com/pottuvillagoonresort,https://instagram.com/pottuvillagoonresort
hotel-resorts-ampara-3,Kalmunai Coconut Grove Resort,hotel,Resorts,Accommodation,"Kalmunai, Ampara",Ampara,,4.1,"Beachfront resort in Kalmunai offering pools, spa treatments and ocean-view rooms.",https://placehold.co/800x600?text=Kalmunai%20Coconut%20Grove%20Resort,+94 063 287 7916,https://www.kalmunai-coconut-grove-resort.lk,7.4186,81.8144,https://facebook.com/kalmunaicoconutgroveresort,https://instagram.com/kalmunaicoconutgroveresort
shop-souvenir-shops-trincomalee-1,Trincomalee Souvenir Corner,shop,Souvenir Shops,Shopping,"Trincomalee Town, Trincomalee",Trincomalee,,4.2,"Local craft and souvenir shop in Trincomalee Town selling batik, gems and handmade gifts.",https://placehold.co/800x600?text=Trincomalee%20Souvenir%20Corner,+94 026 259 9669,https://www.trincomalee-souvenir-corner.lk,8.5783,81.2344,https://facebook.com/trincomaleesouvenircorner,https://instagram.com/trincomaleesouvenircorner
shop-souvenir-shops-trincomalee-2,Nilaveli Batik & Craft Shop,shop,Souvenir Shops,Shopping,"Nilaveli, Trincomalee",Trincomalee,featured,4.5,"Local craft and souvenir shop in Nilaveli selling batik, gems and handmade gifts.",https://placehold.co/800x600?text=Nilaveli%20Batik%20%26%20Craft%20Shop,+94 026 287 2876,https://www.nilaveli-batik-craft-shop.lk,8.7036,81.184,https://facebook.com/nilavelibatikcraftshop,https://instagram.com/nilavelibatikcraftshop
shop-souvenir-shops-trincomalee-3,Uppuveli Gem & Handicraft Store,shop,Souvenir Shops,Shopping,"Uppuveli, Trincomalee",Trincomalee,,3.9,"Local craft and souvenir shop in Uppuveli selling batik, gems and handmade gifts.",https://placehold.co/800x600?text=Uppuveli%20Gem%20%26%20Handicraft%20Store,+94 026 282 6573,https://www.uppuveli-gem-handicraft-store.lk,8.5955,81.2037,https://facebook.com/uppuveligemhandicraftstore,https://instagram.com/uppuveligemhandicraftstore
shop-souvenir-shops-batticaloa-1,Batticaloa Souvenir Corner,shop,Souvenir Shops,Shopping,"Batticaloa Town, Batticaloa",Batticaloa,,4.1,"Local craft and souvenir shop in Batticaloa Town selling batik, gems and handmade gifts.",https://placehold.co/800x600?text=Batticaloa%20Souvenir%20Corner,+94 065 292 5315,https://www.batticaloa-souvenir-corner.lk,7.7261,81.7052,https://facebook.com/batticaloasouvenircorner,https://instagram.com/batticaloasouvenircorner
shop-souvenir-shops-batticaloa-2,Kallady Batik & Craft Shop,shop,Souvenir Shops,Shopping,"Kallady, Batticaloa",Batticaloa,,4.1,"Local craft and souvenir shop in Kallady selling batik, gems and handmade gifts.",https://placehold.co/800x600?text=Kallady%20Batik%20%26%20Craft%20Shop,+94 065 213 5889,https://www.kallady-batik-craft-shop.lk,7.7235,81.7169,https://facebook.com/kalladybatikcraftshop,https://instagram.com/kalladybatikcraftshop
shop-souvenir-shops-batticaloa-3,Pasikudah Gem & Handicraft Store,shop,Souvenir Shops,Shopping,"Pasikudah, Batticaloa",Batticaloa,,3.9,"Local craft and souvenir shop in Pasikudah selling batik, gems and handmade gifts.",https://placehold.co/800x600?text=Pasikudah%20Gem%20%26%20Handicraft%20Store,+94 065 247 3646,https://www.pasikudah-gem-handicraft-store.lk,7.9341,81.5723,https://facebook.com/pasikudahgemhandicraftstore,https://instagram.com/pasikudahgemhandicraftstore
shop-souvenir-shops-ampara-1,Arugam Souvenir Corner,shop,Souvenir Shops,Shopping,"Arugam Bay, Ampara",Ampara,,4.1,"Local craft and souvenir shop in Arugam Bay selling batik, gems and handmade gifts.",https://placehold.co/800x600?text=Arugam%20Souvenir%20Corner,+94 063 200 6310,https://www.arugam-souvenir-corner.lk,6.8398,81.8289,https://facebook.com/arugamsouvenircorner,https://instagram.com/arugamsouvenircorner
shop-souvenir-shops-ampara-2,Pottuvil Batik & Craft Shop,shop,Souvenir Shops,Shopping,"Pottuvil, Ampara",Ampara,,4,"Local craft and souvenir shop in Pottuvil selling batik, gems and handmade gifts.",https://placehold.co/800x600?text=Pottuvil%20Batik%20%26%20Craft%20Shop,+94 063 239 4923,https://www.pottuvil-batik-craft-shop.lk,6.8609,81.8359,https://facebook.com/pottuvilbatikcraftshop,https://instagram.com/pottuvilbatikcraftshop
service-surfing-trincomalee-1,Trincomalee Surf School,service,Surfing,Water Sports,"Trincomalee Town, Trincomalee",Trincomalee,premium,4.9,"Surf lessons and board rentals in Trincomalee Town, suited to beginners and experienced surfers alike.",https://placehold.co/800x600?text=Trincomalee%20Surf%20School,+94 026 210 8962,https://www.trincomalee-surf-school.lk,8.5896,81.2429,https://facebook.com/trincomaleesurfschool,https://instagram.com/trincomaleesurfschool
service-surfing-trincomalee-2,Nilaveli Surf Camp,service,Surfing,Water Sports,"Nilaveli, Trincomalee",Trincomalee,featured,4.5,"Surf lessons and board rentals in Nilaveli, suited to beginners and experienced surfers alike.",https://placehold.co/800x600?text=Nilaveli%20Surf%20Camp,+94 026 216 3103,https://www.nilaveli-surf-camp.lk,8.7032,81.1922,https://facebook.com/nilavelisurfcamp,https://instagram.com/nilavelisurfcamp
service-surfing-batticaloa-1,Batticaloa Surf School,service,Surfing,Water Sports,"Batticaloa Town, Batticaloa",Batticaloa,,4.1,"Surf lessons and board rentals in Batticaloa Town, suited to beginners and experienced surfers alike.",https://placehold.co/800x600?text=Batticaloa%20Surf%20School,+94 065 267 7932,https://www.batticaloa-surf-school.lk,7.726,81.7086,https://facebook.com/batticaloasurfschool,https://instagram.com/batticaloasurfschool
service-surfing-ampara-1,Arugam Surf School,service,Surfing,Water Sports,"Arugam Bay, Ampara",Ampara,premium,4.7,"Surf lessons and board rentals in Arugam Bay, suited to beginners and experienced surfers alike.",https://placehold.co/800x600?text=Arugam%20Surf%20School,+94 063 288 4295,https://www.arugam-surf-school.lk,6.8443,81.8347,https://facebook.com/arugamsurfschool,https://instagram.com/arugamsurfschool
service-surfing-ampara-2,Pottuvil Surf Camp,service,Surfing,Water Sports,"Pottuvil, Ampara",Ampara,featured,4.6,"Surf lessons and board rentals in Pottuvil, suited to beginners and experienced surfers alike.",https://placehold.co/800x600?text=Pottuvil%20Surf%20Camp,+94 063 247 8177,https://www.pottuvil-surf-camp.lk,6.8777,81.8273,https://facebook.com/pottuvilsurfcamp,https://instagram.com/pottuvilsurfcamp
service-surfing-ampara-3,Kalmunai Point Surf Shack,service,Surfing,Water Sports,"Kalmunai, Ampara",Ampara,,4.2,"Surf lessons and board rentals in Kalmunai, suited to beginners and experienced surfers alike.",https://placehold.co/800x600?text=Kalmunai%20Point%20Surf%20Shack,+94 063 208 6539,https://www.kalmunai-point-surf-shack.lk,7.4071,81.8178,https://facebook.com/kalmunaipointsurfshack,https://instagram.com/kalmunaipointsurfshack
service-surfing-ampara-4,Akkaraipattu Surf School,service,Surfing,Water Sports,"Akkaraipattu, Ampara",Ampara,featured,4.5,"Surf lessons and board rentals in Akkaraipattu, suited to beginners and experienced surfers alike.",https://placehold.co/800x600?text=Akkaraipattu%20Surf%20School,+94 063 200 2163,https://www.akkaraipattu-surf-school.lk,7.2209,81.8412,https://facebook.com/akkaraipattusurfschool,https://instagram.com/akkaraipattusurfschool
service-diving-trincomalee-1,Trincomalee Dive Centre,service,Diving,Water Sports,"Trincomalee Town, Trincomalee",Trincomalee,,4.1,"PADI-affiliated dive centre in Trincomalee Town offering reef and wreck dive excursions.",https://placehold.co/800x600?text=Trincomalee%20Dive%20Centre,+94 026 204 6413,https://www.trincomalee-dive-centre.lk,8.5747,81.2281,https://facebook.com/trincomaleedivecentre,https://instagram.com/trincomaleedivecentre
service-diving-trincomalee-2,Nilaveli Scuba Base,service,Diving,Water Sports,"Nilaveli, Trincomalee",Trincomalee,featured,4.5,"PADI-affiliated dive centre in Nilaveli offering reef and wreck dive excursions.",https://placehold.co/800x600?text=Nilaveli%20Scuba%20Base,+94 026 227 9834,https://www.nilaveli-scuba-base.lk,8.6926,81.192,https://facebook.com/nilaveliscubabase,https://instagram.com/nilaveliscubabase
service-diving-trincomalee-3,Uppuveli Dive Centre,service,Diving,Water Sports,"Uppuveli, Trincomalee",Trincomalee,featured,4.5,"PADI-affiliated dive centre in Uppuveli offering reef and wreck dive excursions.",https://placehold.co/800x600?text=Uppuveli%20Dive%20Centre,+94 026 260 4981,https://www.uppuveli-dive-centre.lk,8.609,81.2111,https://facebook.com/uppuvelidivecentre,https://instagram.com/uppuvelidivecentre
service-diving-batticaloa-1,Batticaloa Dive Centre,service,Diving,Water Sports,"Batticaloa Town, Batticaloa",Batticaloa,,4.2,"PADI-affiliated dive centre in Batticaloa Town offering reef and wreck dive excursions.",https://placehold.co/800x600?text=Batticaloa%20Dive%20Centre,+94 065 212 8062,https://www.batticaloa-dive-centre.lk,7.7138,81.6982,https://facebook.com/batticaloadivecentre,https://instagram.com/batticaloadivecentre
service-diving-ampara-1,Arugam Dive Centre,service,Diving,Water Sports,"Arugam Bay, Ampara",Ampara,premium,4.7,"PADI-affiliated dive centre in Arugam Bay offering reef and wreck dive excursions.",https://placehold.co/800x600?text=Arugam%20Dive%20Centre,+94 063 206 2612,https://www.arugam-dive-centre.lk,6.8312,81.8413,https://facebook.com/arugamdivecentre,https://instagram.com/arugamdivecentre
service-snorkeling-trincomalee-1,Trincomalee Reef Snorkel Tours,service,Snorkeling,Water Sports,"Trincomalee Town, Trincomalee",Trincomalee,featured,4.5,"Guided snorkeling trips from Trincomalee Town to nearby coral reefs and calm bays.",https://placehold.co/800x600?text=Trincomalee%20Reef%20Snorkel%20Tours,+94 026 213 5073,https://www.trincomalee-reef-snorkel-tours.lk,8.5771,81.234,https://facebook.com/trincomaleereefsnorkeltours,https://instagram.com/trincomaleereefsnorkeltours
service-snorkeling-trincomalee-2,Nilaveli Coral Snorkel Trips,service,Snorkeling,Water Sports,"Nilaveli, Trincomalee",Trincomalee,,4,"Guided snorkeling trips from Nilaveli to nearby coral reefs and calm bays.",https://placehold.co/800x600?text=Nilaveli%20Coral%20Snorkel%20Trips,+94 026 223 5563,https://www.nilaveli-coral-snorkel-trips.lk,8.6993,81.1908,https://facebook.com/nilavelicoralsnorkeltrips,https://instagram.com/nilavelicoralsnorkeltrips
service-snorkeling-trincomalee-3,Uppuveli Reef Snorkel Tours,service,Snorkeling,Water Sports,"Uppuveli, Trincomalee",Trincomalee,,4,"Guided snorkeling trips from Uppuveli to nearby coral reefs and calm bays.",https://placehold.co/800x600?text=Uppuveli%20Reef%20Snorkel%20Tours,+94 026 270 2604,https://www.uppuveli-reef-snorkel-tours.lk,8.5943,81.215,https://facebook.com/uppuvelireefsnorkeltours,https://instagram.com/uppuvelireefsnorkeltours
service-snorkeling-batticaloa-1,Batticaloa Reef Snorkel Tours,service,Snorkeling,Water Sports,"Batticaloa Town, Batticaloa",Batticaloa,featured,4.5,"Guided snorkeling trips from Batticaloa Town to nearby coral reefs and calm bays.",https://placehold.co/800x600?text=Batticaloa%20Reef%20Snorkel%20Tours,+94 065 211 4872,https://www.batticaloa-reef-snorkel-tours.lk,7.71,81.6997,https://facebook.com/batticaloareefsnorkeltours,https://instagram.com/batticaloareefsnorkeltours
service-snorkeling-batticaloa-2,Kallady Coral Snorkel Trips,service,Snorkeling,Water Sports,"Kallady, Batticaloa",Batticaloa,,4,"Guided snorkeling trips from Kallady to nearby coral reefs and calm bays.",https://placehold.co/800x600?text=Kallady%20Coral%20Snorkel%20Trips,+94 065 251 1960,https://www.kallady-coral-snorkel-trips.lk,7.71,81.7067,https://facebook.com/kalladycoralsnorkeltrips,https://instagram.com/kalladycoralsnorkeltrips
service-snorkeling-ampara-1,Arugam Reef Snorkel Tours,service,Snorkeling,Water Sports,"Arugam Bay, Ampara",Ampara,,4.2,"Guided snorkeling trips from Arugam Bay to nearby coral reefs and calm bays.",https://placehold.co/800x600?text=Arugam%20Reef%20Snorkel%20Tours,+94 063 258 5673,https://www.arugam-reef-snorkel-tours.lk,6.8385,81.8458,https://facebook.com/arugamreefsnorkeltours,https://instagram.com/arugamreefsnorkeltours
service-whale-watching-trincomalee-1,Trincomalee Whale Watching Tours,service,Whale Watching,Water Sports,"Trincomalee Town, Trincomalee",Trincomalee,premium,4.8,"Boat excursions from Trincomalee Town to spot blue whales and dolphins offshore.",https://placehold.co/800x600?text=Trincomalee%20Whale%20Watching%20Tours,+94 026 271 8973,https://www.trincomalee-whale-watching-tours.lk,8.5764,81.2292,https://facebook.com/trincomaleewhalewatchingtours,https://instagram.com/trincomaleewhalewatchingtours
service-whale-watching-trincomalee-2,Nilaveli Blue Whale Charters,service,Whale Watching,Water Sports,"Nilaveli, Trincomalee",Trincomalee,premium,4.8,"Boat excursions from Nilaveli to spot blue whales and dolphins offshore.",https://placehold.co/800x600?text=Nilaveli%20Blue%20Whale%20Charters,+94 026 274 9883,https://www.nilaveli-blue-whale-charters.lk,8.6912,81.1796,https://facebook.com/nilavelibluewhalecharters,https://instagram.com/nilavelibluewhalecharters
service-whale-watching-trincomalee-3,Uppuveli Whale Watching Tours,service,Whale Watching,Water Sports,"Uppuveli, Trincomalee",Trincomalee,,4.1,"Boat excursions from Uppuveli to spot blue whales and dolphins offshore.",https://placehold.co/800x600?text=Uppuveli%20Whale%20Watching%20Tours,+94 026 261 9238,https://www.uppuveli-whale-watching-tours.lk,8.6117,81.2056,https://facebook.com/uppuveliwhalewatchingtours,https://instagram.com/uppuveliwhalewatchingtours
service-whale-watching-batticaloa-1,Batticaloa Whale Watching Tours,service,Whale Watching,Water Sports,"Batticaloa Town, Batticaloa",Batticaloa,,4.1,"Boat excursions from Batticaloa Town to spot blue whales and dolphins offshore.",https://placehold.co/800x600?text=Batticaloa%20Whale%20Watching%20Tours,+94 065 265 2312,https://www.batticaloa-whale-watching-tours.lk,7.7237,81.6914,https://facebook.com/batticaloawhalewatchingtours,https://instagram.com/batticaloawhalewatchingtours
service-whale-watching-ampara-1,Arugam Whale Watching Tours,service,Whale Watching,Water Sports,"Arugam Bay, Ampara",Ampara,,4.1,"Boat excursions from Arugam Bay to spot blue whales and dolphins offshore.",https://placehold.co/800x600?text=Arugam%20Whale%20Watching%20Tours,+94 063 230 7615,https://www.arugam-whale-watching-tours.lk,6.8324,81.8445,https://facebook.com/arugamwhalewatchingtours,https://instagram.com/arugamwhalewatchingtours
service-hiking-trincomalee-1,Trincomalee Nature Hiking Guides,service,Hiking,Tours,"Trincomalee Town, Trincomalee",Trincomalee,,4.1,"Guided nature hikes around Trincomalee Town through forest and coastal trails.",https://placehold.co/800x600?text=Trincomalee%20Nature%20Hiking%20Guides,+94 026 276 1651,https://www.trincomalee-nature-hiking-guides.lk,8.5857,81.2317,https://facebook.com/trincomaleenaturehikingguides,https://instagram.com/trincomaleenaturehikingguides
service-hiking-trincomalee-2,Nilaveli Trail Trekkers,service,Hiking,Tours,"Nilaveli, Trincomalee",Trincomalee,,4.3,"Guided nature hikes around Nilaveli through forest and coastal trails.",https://placehold.co/800x600?text=Nilaveli%20Trail%20Trekkers,+94 026 266 6183,https://www.nilaveli-trail-trekkers.lk,8.7087,81.1774,https://facebook.com/nilavelitrailtrekkers,https://instagram.com/nilavelitrailtrekkers
service-hiking-batticaloa-1,Batticaloa Nature Hiking Guides,service,Hiking,Tours,"Batticaloa Town, Batticaloa",Batticaloa,featured,4.4,"Guided nature hikes around Batticaloa Town through forest and coastal trails.",https://placehold.co/800x600?text=Batticaloa%20Nature%20Hiking%20Guides,+94 065 230 5351,https://www.batticaloa-nature-hiking-guides.lk,7.7146,81.7034,https://facebook.com/batticaloanaturehikingguides,https://instagram.com/batticaloanaturehikingguides
service-hiking-ampara-1,Arugam Nature Hiking Guides,service,Hiking,Tours,"Arugam Bay, Ampara",Ampara,,4.1,"Guided nature hikes around Arugam Bay through forest and coastal trails.",https://placehold.co/800x600?text=Arugam%20Nature%20Hiking%20Guides,+94 063 240 2188,https://www.arugam-nature-hiking-guides.lk,6.8302,81.8391,https://facebook.com/arugamnaturehikingguides,https://instagram.com/arugamnaturehikingguides
service-hiking-ampara-2,Pottuvil Trail Trekkers,service,Hiking,Tours,"Pottuvil, Ampara",Ampara,,4.3,"Guided nature hikes around Pottuvil through forest and coastal trails.",https://placehold.co/800x600?text=Pottuvil%20Trail%20Trekkers,+94 063 212 2200,https://www.pottuvil-trail-trekkers.lk,6.8705,81.8284,https://facebook.com/pottuviltrailtrekkers,https://instagram.com/pottuviltrailtrekkers
service-cycling-trincomalee-1,Trincomalee Cycle Tours,service,Cycling,Tours,"Trincomalee Town, Trincomalee",Trincomalee,,3.9,"Bike rental and guided cycling tours exploring the villages around Trincomalee Town.",https://placehold.co/800x600?text=Trincomalee%20Cycle%20Tours,+94 026 244 2127,https://www.trincomalee-cycle-tours.lk,8.5909,81.2307,https://facebook.com/trincomaleecycletours,https://instagram.com/trincomaleecycletours
service-cycling-trincomalee-2,Nilaveli Bike Rentals & Tours,service,Cycling,Tours,"Nilaveli, Trincomalee",Trincomalee,,3.9,"Bike rental and guided cycling tours exploring the villages around Nilaveli.",https://placehold.co/800x600?text=Nilaveli%20Bike%20Rentals%20%26%20Tours,+94 026 269 5956,https://www.nilaveli-bike-rentals-tours.lk,8.7022,81.193,https://facebook.com/nilavelibikerentalstours,https://instagram.com/nilavelibikerentalstours
service-cycling-batticaloa-1,Batticaloa Cycle Tours,service,Cycling,Tours,"Batticaloa Town, Batticaloa",Batticaloa,,4.3,"Bike rental and guided cycling tours exploring the villages around Batticaloa Town.",https://placehold.co/800x600?text=Batticaloa%20Cycle%20Tours,+94 065 201 5905,https://www.batticaloa-cycle-tours.lk,7.7253,81.6921,https://facebook.com/batticaloacycletours,https://instagram.com/batticaloacycletours
service-cycling-batticaloa-2,Kallady Bike Rentals & Tours,service,Cycling,Tours,"Kallady, Batticaloa",Batticaloa,featured,4.4,"Bike rental and guided cycling tours exploring the villages around Kallady.",https://placehold.co/800x600?text=Kallady%20Bike%20Rentals%20%26%20Tours,+94 065 233 2891,https://www.kallady-bike-rentals-tours.lk,7.7245,81.7215,https://facebook.com/kalladybikerentalstours,https://instagram.com/kalladybikerentalstours
service-cycling-ampara-1,Arugam Cycle Tours,service,Cycling,Tours,"Arugam Bay, Ampara",Ampara,,3.9,"Bike rental and guided cycling tours exploring the villages around Arugam Bay.",https://placehold.co/800x600?text=Arugam%20Cycle%20Tours,+94 063 236 4450,https://www.arugam-cycle-tours.lk,6.8444,81.8308,https://facebook.com/arugamcycletours,https://instagram.com/arugamcycletours
service-cycling-ampara-2,Pottuvil Bike Rentals & Tours,service,Cycling,Tours,"Pottuvil, Ampara",Ampara,,4.2,"Bike rental and guided cycling tours exploring the villages around Pottuvil.",https://placehold.co/800x600?text=Pottuvil%20Bike%20Rentals%20%26%20Tours,+94 063 233 9280,https://www.pottuvil-bike-rentals-tours.lk,6.8695,81.8364,https://facebook.com/pottuvilbikerentalstours,https://instagram.com/pottuvilbikerentalstours
service-fishing-trincomalee-1,Trincomalee Fishing Charters,service,Fishing,Water Sports,"Trincomalee Town, Trincomalee",Trincomalee,featured,4.4,"Traditional and deep-sea fishing charters departing from Trincomalee Town.",https://placehold.co/800x600?text=Trincomalee%20Fishing%20Charters,+94 026 211 7939,https://www.trincomalee-fishing-charters.lk,8.5899,81.2242,https://facebook.com/trincomaleefishingcharters,https://instagram.com/trincomaleefishingcharters
service-fishing-trincomalee-2,Nilaveli Deep Sea Fishing Trips,service,Fishing,Water Sports,"Nilaveli, Trincomalee",Trincomalee,,4.1,"Traditional and deep-sea fishing charters departing from Nilaveli.",https://placehold.co/800x600?text=Nilaveli%20Deep%20Sea%20Fishing%20Trips,+94 026 216 5291,https://www.nilaveli-deep-sea-fishing-trips.lk,8.6932,81.1821,https://facebook.com/nilavelideepseafishingtrips,https://instagram.com/nilavelideepseafishingtrips
service-fishing-batticaloa-1,Batticaloa Fishing Charters,service,Fishing,Water Sports,"Batticaloa Town, Batticaloa",Batticaloa,,4.3,"Traditional and deep-sea fishing charters departing from Batticaloa Town.",https://placehold.co/800x600?text=Batticaloa%20Fishing%20Charters,+94 065 271 1158,https://www.batticaloa-fishing-charters.lk,7.7089,81.7089,https://facebook.com/batticaloafishingcharters,https://instagram.com/batticaloafishingcharters
service-fishing-batticaloa-2,Kallady Deep Sea Fishing Trips,service,Fishing,Water Sports,"Kallady, Batticaloa",Batticaloa,,4.3,"Traditional and deep-sea fishing charters departing from Kallady.",https://placehold.co/800x600?text=Kallady%20Deep%20Sea%20Fishing%20Trips,+94 065 219 9938,https://www.kallady-deep-sea-fishing-trips.lk,7.7074,81.7141,https://facebook.com/kalladydeepseafishingtrips,https://instagram.com/kalladydeepseafishingtrips
service-fishing-ampara-1,Arugam Fishing Charters,service,Fishing,Water Sports,"Arugam Bay, Ampara",Ampara,,4.2,"Traditional and deep-sea fishing charters departing from Arugam Bay.",https://placehold.co/800x600?text=Arugam%20Fishing%20Charters,+94 063 255 3088,https://www.arugam-fishing-charters.lk,6.8308,81.834,https://facebook.com/arugamfishingcharters,https://instagram.com/arugamfishingcharters
service-fishing-ampara-2,Pottuvil Deep Sea Fishing Trips,service,Fishing,Water Sports,"Pottuvil, Ampara",Ampara,featured,4.5,"Traditional and deep-sea fishing charters departing from Pottuvil.",https://placehold.co/800x600?text=Pottuvil%20Deep%20Sea%20Fishing%20Trips,+94 063 205 6862,https://www.pottuvil-deep-sea-fishing-trips.lk,6.8639,81.8233,https://facebook.com/pottuvildeepseafishingtrips,https://instagram.com/pottuvildeepseafishingtrips
service-boat-tours-trincomalee-1,Trincomalee Boat Safari Tours,service,Boat Tours,Water Sports,"Trincomalee Town, Trincomalee",Trincomalee,,4,"Scenic boat and lagoon tours around Trincomalee Town, including sunset cruises.",https://placehold.co/800x600?text=Trincomalee%20Boat%20Safari%20Tours,+94 026 299 7658,https://www.trincomalee-boat-safari-tours.lk,8.5928,81.2383,https://facebook.com/trincomaleeboatsafaritours,https://instagram.com/trincomaleeboatsafaritours
service-boat-tours-trincomalee-2,Nilaveli Lagoon Boat Rides,service,Boat Tours,Water Sports,"Nilaveli, Trincomalee",Trincomalee,featured,4.5,"Scenic boat and lagoon tours around Nilaveli, including sunset cruises.",https://placehold.co/800x600?text=Nilaveli%20Lagoon%20Boat%20Rides,+94 026 230 3662,https://www.nilaveli-lagoon-boat-rides.lk,8.7095,81.1895,https://facebook.com/nilavelilagoonboatrides,https://instagram.com/nilavelilagoonboatrides
service-boat-tours-batticaloa-1,Batticaloa Boat Safari Tours,service,Boat Tours,Water Sports,"Batticaloa Town, Batticaloa",Batticaloa,featured,4.5,"Scenic boat and lagoon tours around Batticaloa Town, including sunset cruises.",https://placehold.co/800x600?text=Batticaloa%20Boat%20Safari%20Tours,+94 065 203 3938,https://www.batticaloa-boat-safari-tours.lk,7.7214,81.6966,https://facebook.com/batticaloaboatsafaritours,https://instagram.com/batticaloaboatsafaritours
service-boat-tours-batticaloa-2,Kallady Lagoon Boat Rides,service,Boat Tours,Water Sports,"Kallady, Batticaloa",Batticaloa,featured,4.6,"Scenic boat and lagoon tours around Kallady, including sunset cruises.",https://placehold.co/800x600?text=Kallady%20Lagoon%20Boat%20Rides,+94 065 285 5065,https://www.kallady-lagoon-boat-rides.lk,7.712,81.7224,https://facebook.com/kalladylagoonboatrides,https://instagram.com/kalladylagoonboatrides
service-boat-tours-batticaloa-3,Pasikudah Boat Safari Tours,service,Boat Tours,Water Sports,"Pasikudah, Batticaloa",Batticaloa,,4,"Scenic boat and lagoon tours around Pasikudah, including sunset cruises.",https://placehold.co/800x600?text=Pasikudah%20Boat%20Safari%20Tours,+94 065 204 8711,https://www.pasikudah-boat-safari-tours.lk,7.9277,81.573,https://facebook.com/pasikudahboatsafaritours,https://instagram.com/pasikudahboatsafaritours
service-boat-tours-ampara-1,Arugam Boat Safari Tours,service,Boat Tours,Water Sports,"Arugam Bay, Ampara",Ampara,,4.2,"Scenic boat and lagoon tours around Arugam Bay, including sunset cruises.",https://placehold.co/800x600?text=Arugam%20Boat%20Safari%20Tours,+94 063 239 4728,https://www.arugam-boat-safari-tours.lk,6.8345,81.8399,https://facebook.com/arugamboatsafaritours,https://instagram.com/arugamboatsafaritours
service-safari-trincomalee-1,Trincomalee Jeep Safari Operators,service,Safari,Tours,"Trincomalee Town, Trincomalee",Trincomalee,,4.3,"Jeep safari operator running trips from Trincomalee Town to nearby national parks.",https://placehold.co/800x600?text=Trincomalee%20Jeep%20Safari%20Operators,+94 026 235 2137,https://www.trincomalee-jeep-safari-operators.lk,8.5926,81.2289,https://facebook.com/trincomaleejeepsafarioperators,https://instagram.com/trincomaleejeepsafarioperators
service-safari-trincomalee-2,Nilaveli Wildlife Safari Tours,service,Safari,Tours,"Nilaveli, Trincomalee",Trincomalee,featured,4.4,"Jeep safari operator running trips from Nilaveli to nearby national parks.",https://placehold.co/800x600?text=Nilaveli%20Wildlife%20Safari%20Tours,+94 026 251 9785,https://www.nilaveli-wildlife-safari-tours.lk,8.6966,81.1739,https://facebook.com/nilaveliwildlifesafaritours,https://instagram.com/nilaveliwildlifesafaritours
service-safari-batticaloa-1,Batticaloa Jeep Safari Operators,service,Safari,Tours,"Batticaloa Town, Batticaloa",Batticaloa,featured,4.6,"Jeep safari operator running trips from Batticaloa Town to nearby national parks.",https://placehold.co/800x600?text=Batticaloa%20Jeep%20Safari%20Operators,+94 065 233 3925,https://www.batticaloa-jeep-safari-operators.lk,7.7183,81.7097,https://facebook.com/batticaloajeepsafarioperators,https://instagram.com/batticaloajeepsafarioperators
service-safari-ampara-1,Arugam Jeep Safari Operators,service,Safari,Tours,"Arugam Bay, Ampara",Ampara,,4,"Jeep safari operator running trips from Arugam Bay to nearby national parks.",https://placehold.co/800x600?text=Arugam%20Jeep%20Safari%20Operators,+94 063 276 8119,https://www.arugam-jeep-safari-operators.lk,6.8369,81.8424,https://facebook.com/arugamjeepsafarioperators,https://instagram.com/arugamjeepsafarioperators
service-safari-ampara-2,Pottuvil Wildlife Safari Tours,service,Safari,Tours,"Pottuvil, Ampara",Ampara,,4.3,"Jeep safari operator running trips from Pottuvil to nearby national parks.",https://placehold.co/800x600?text=Pottuvil%20Wildlife%20Safari%20Tours,+94 063 265 2894,https://www.pottuvil-wildlife-safari-tours.lk,6.8674,81.8298,https://facebook.com/pottuvilwildlifesafaritours,https://instagram.com/pottuvilwildlifesafaritours
service-photography-spots-trincomalee-1,Trincomalee Photography Tours,service,Photography Spots,Tours,"Trincomalee Town, Trincomalee",Trincomalee,,4.1,"Guided photography tours around Trincomalee Town, covering sunrise, wildlife and coastal shots.",https://placehold.co/800x600?text=Trincomalee%20Photography%20Tours,+94 026 290 8144,https://www.trincomalee-photography-tours.lk,8.5733,81.2418,https://facebook.com/trincomaleephotographytours,https://instagram.com/trincomaleephotographytours
service-photography-spots-trincomalee-2,Nilaveli Scenic Shoot Guides,service,Photography Spots,Tours,"Nilaveli, Trincomalee",Trincomalee,,4.3,"Guided photography tours around Nilaveli, covering sunrise, wildlife and coastal shots.",https://placehold.co/800x600?text=Nilaveli%20Scenic%20Shoot%20Guides,+94 026 292 4228,https://www.nilaveli-scenic-shoot-guides.lk,8.6973,81.1747,https://facebook.com/nilaveliscenicshootguides,https://instagram.com/nilaveliscenicshootguides
service-photography-spots-batticaloa-1,Batticaloa Photography Tours,service,Photography Spots,Tours,"Batticaloa Town, Batticaloa",Batticaloa,featured,4.4,"Guided photography tours around Batticaloa Town, covering sunrise, wildlife and coastal shots.",https://placehold.co/800x600?text=Batticaloa%20Photography%20Tours,+94 065 242 6143,https://www.batticaloa-photography-tours.lk,7.72,81.6925,https://facebook.com/batticaloaphotographytours,https://instagram.com/batticaloaphotographytours
service-photography-spots-ampara-1,Arugam Photography Tours,service,Photography Spots,Tours,"Arugam Bay, Ampara",Ampara,featured,4.5,"Guided photography tours around Arugam Bay, covering sunrise, wildlife and coastal shots.",https://placehold.co/800x600?text=Arugam%20Photography%20Tours,+94 063 264 6067,https://www.arugam-photography-tours.lk,6.8433,81.8332,https://facebook.com/arugamphotographytours,https://instagram.com/arugamphotographytours
service-photography-spots-ampara-2,Pottuvil Scenic Shoot Guides,service,Photography Spots,Tours,"Pottuvil, Ampara",Ampara,featured,4.4,"Guided photography tours around Pottuvil, covering sunrise, wildlife and coastal shots.",https://placehold.co/800x600?text=Pottuvil%20Scenic%20Shoot%20Guides,+94 063 270 3085,https://www.pottuvil-scenic-shoot-guides.lk,6.8635,81.8316,https://facebook.com/pottuvilscenicshootguides,https://instagram.com/pottuvilscenicshootguides
